{
"type": "FeatureCollection",
"crs": { "type": "name", "properties": { "name": "urn:ogc:def:crs:OGC:1.3:CRS84" } },
"features": [
{ "type": "Feature", "properties": { "Name": "Acerenza", "description": "LATITUDE: 40.796903<br>LONGITUDE: 15.940681<br>Type: ", "timestamp": null, "begin": null, "end": null, "altitudeMode": null, "tessellate": -1, "extrude": 0, "visibility": -1, "drawOrder": null, "icon": null, "LATITUDE": "40.796903", "LONGITUDE": "15.940681", "Type": "" }, "geometry": { "type": "Point", "coordinates": [ 15.940681, 40.796903, 0.0 ] } },
{ "type": "Feature", "properties": { "Name": "Agrigento (Girgenti)", "description": "LATITUDE: 37.316667<br>LONGITUDE: 13.59351<br>Type: ", "timestamp": null, "begin": null, "end": null, "altitudeMode": null, "tessellate": -1, "extrude": 0, "visibility": -1, "drawOrder": null, "icon": null, "LATITUDE": "37.316667", "LONGITUDE": "13.59351", "Type": "" }, "geometry": { "type": "Point", "coordinates": [ 13.59351, 37.316667, 0.0 ] } },
{ "type": "Feature", "properties": { "Name": "Altamura", "description": "LATITUDE: 40.82664<br>LONGITUDE: 16.54952<br>Type: ", "timestamp": null, "begin": null, "end": null, "altitudeMode": null, "tessellate": -1, "extrude": 0, "visibility": -1, "drawOrder": null, "icon": null, "LATITUDE": "40.82664", "LONGITUDE": "16.54952", "Type": "" }, "geometry": { "type": "Point", "coordinates": [ 16.54952, 40.82664, 0.0 ] } },
{ "type": "Feature", "properties": { "Name": "Amalfi", "description": "LATITUDE: 40.6333308<br>LONGITUDE: 14.5999976<br>Type: ", "timestamp": null, "begin": null, "end": null, "altitudeMode": null, "tessellate": -1, "extrude": 0, "visibility": -1, "drawOrder": null, "icon": null, "LATITUDE": "40.6333308", "LONGITUDE": "14.5999976", "Type": "" }, "geometry": { "type": "Point", "coordinates": [ 14.5999976, 40.6333308, 0.0 ] } },
{ "type": "Feature", "properties": { "Name": "Andria", "description": "LATITUDE: 41.216667<br>LONGITUDE: 16.283333<br>Type: ", "timestamp": null, "begin": null, "end": null, "altitudeMode": null, "tessellate": -1, "extrude": 0, "visibility": -1, "drawOrder": null, "icon": null, "LATITUDE": "41.216667", "LONGITUDE": "16.283333", "Type": "" }, "geometry": { "type": "Point", "coordinates": [ 16.283333, 41.216667, 0.0 ] } },
{ "type": "Feature", "properties": { "Name": "Ascoli", "description": "LATITUDE: 42.8536<br>LONGITUDE: 13.5749<br>Type: ", "timestamp": null, "begin": null, "end": null, "altitudeMode": null, "tessellate": -1, "extrude": 0, "visibility": -1, "drawOrder": null, "icon": null, "LATITUDE": "42.8536", "LONGITUDE": "13.5749", "Type": "" }, "geometry": { "type": "Point", "coordinates": [ 13.5749, 42.8536, 0.0 ] } },
{ "type": "Feature", "properties": { "Name": "Aversa", "description": "LATITUDE: 40.9732<br>LONGITUDE: 14.2077<br>Type: ", "timestamp": null, "begin": null, "end": null, "altitudeMode": null, "tessellate": -1, "extrude": 0, "visibility": -1, "drawOrder": null, "icon": null, "LATITUDE": "40.9732", "LONGITUDE": "14.2077", "Type": "" }, "geometry": { "type": "Point", "coordinates": [ 14.2077, 40.9732, 0.0 ] } },
{ "type": "Feature", "properties": { "Name": "Bari", "description": "LATITUDE: 41.1171<br>LONGITUDE: 16.8719<br>Type: ", "timestamp": null, "begin": null, "end": null, "altitudeMode": null, "tessellate": -1, "extrude": 0, "visibility": -1, "drawOrder": null, "icon": null, "LATITUDE": "41.1171", "LONGITUDE": "16.8719", "Type": "" }, "geometry": { "type": "Point", "coordinates": [ 16.8719, 41.1171, 0.0 ] } },
{ "type": "Feature", "properties": { "Name": "Barletta", "description": "LATITUDE: 41.31429<br>LONGITUDE: 16.28165<br>Type: ", "timestamp": null, "begin": null, "end": null, "altitudeMode": null, "tessellate": -1, "extrude": 0, "visibility": -1, "drawOrder": null, "icon": null, "LATITUDE": "41.31429", "LONGITUDE": "16.28165", "Type": "" }, "geometry": { "type": "Point", "coordinates": [ 16.28165, 41.31429, 0.0 ] } },
{ "type": "Feature", "properties": { "Name": "Benevento", "description": "LATITUDE: 41.1298<br>LONGITUDE: 14.7826<br>Type: ", "timestamp": null, "begin": null, "end": null, "altitudeMode": null, "tessellate": -1, "extrude": 0, "visibility": -1, "drawOrder": null, "icon": null, "LATITUDE": "41.1298", "LONGITUDE": "14.7826", "Type": "" }, "geometry": { "type": "Point", "coordinates": [ 14.7826, 41.1298, 0.0 ] } },
{ "type": "Feature", "properties": { "Name": "Bisceglie", "description": "LATITUDE: 41.24264<br>LONGITUDE: 16.50104<br>Type: ", "timestamp": null, "begin": null, "end": null, "altitudeMode": null, "tessellate": -1, "extrude": 0, "visibility": -1, "drawOrder": null, "icon": null, "LATITUDE": "41.24264", "LONGITUDE": "16.50104", "Type": "" }, "geometry": { "type": "Point", "coordinates": [ 16.50104, 41.24264, 0.0 ] } },
{ "type": "Feature", "properties": { "Name": "Bitonto", "description": "LATITUDE: 41.11006<br>LONGITUDE: 16.69086<br>Type: ", "timestamp": null, "begin": null, "end": null, "altitudeMode": null, "tessellate": -1, "extrude": 0, "visibility": -1, "drawOrder": null, "icon": null, "LATITUDE": "41.11006", "LONGITUDE": "16.69086", "Type": "" }, "geometry": { "type": "Point", "coordinates": [ 16.69086, 41.11006, 0.0 ] } },
{ "type": "Feature", "properties": { "Name": "Brindisi", "description": "LATITUDE: 40.63215<br>LONGITUDE: 17.93607<br>Type: ", "timestamp": null, "begin": null, "end": null, "altitudeMode": null, "tessellate": -1, "extrude": 0, "visibility": -1, "drawOrder": null, "icon": null, "LATITUDE": "40.63215", "LONGITUDE": "17.93607", "Type": "" }, "geometry": { "type": "Point", "coordinates": [ 17.93607, 40.63215, 0.0 ] } },
{ "type": "Feature", "properties": { "Name": "Canosa", "description": "LATITUDE: 41.21954<br>LONGITUDE: 16.06768<br>Type: ", "timestamp": null, "begin": null, "end": null, "altitudeMode": null, "tessellate": -1, "extrude": 0, "visibility": -1, "drawOrder": null, "icon": null, "LATITUDE": "41.21954", "LONGITUDE": "16.06768", "Type": "" }, "geometry": { "type": "Point", "coordinates": [ 16.06768, 41.21954, 0.0 ] } },
{ "type": "Feature", "properties": { "Name": "Capri", "description": "LATITUDE: 40.55073<br>LONGITUDE: 14.24263<br>Type: ", "timestamp": null, "begin": null, "end": null, "altitudeMode": null, "tessellate": -1, "extrude": 0, "visibility": -1, "drawOrder": null, "icon": null, "LATITUDE": "40.55073", "LONGITUDE": "14.24263", "Type": "" }, "geometry": { "type": "Point", "coordinates": [ 14.24263, 40.55073, 0.0 ] } },
{ "type": "Feature", "properties": { "Name": "Capua", "description": "LATITUDE: 41.10519<br>LONGITUDE: 14.21269<br>Type: ", "timestamp": null, "begin": null, "end": null, "altitudeMode": null, "tessellate": -1, "extrude": 0, "visibility": -1, "drawOrder": null, "icon": null, "LATITUDE": "41.10519", "LONGITUDE": "14.21269", "Type": "" }, "geometry": { "type": "Point", "coordinates": [ 14.21269, 41.10519, 0.0 ] } },
{ "type": "Feature", "properties": { "Name": "Carinola", "description": "LATITUDE: 41.1888<br>LONGITUDE: 13.9767<br>Type: ", "timestamp": null, "begin": null, "end": null, "altitudeMode": null, "tessellate": -1, "extrude": 0, "visibility": -1, "drawOrder": null, "icon": null, "LATITUDE": "41.1888", "LONGITUDE": "13.9767", "Type": "" }, "geometry": { "type": "Point", "coordinates": [ 13.9767, 41.1888, 0.0 ] } },
{ "type": "Feature", "properties": { "Name": "Caserta (Vecchia)", "description": "LATITUDE: 41.0969<br>LONGITUDE: 14.3672<br>Type: ", "timestamp": null, "begin": null, "end": null, "altitudeMode": null, "tessellate": -1, "extrude": 0, "visibility": -1, "drawOrder": null, "icon": null, "LATITUDE": "41.0969", "LONGITUDE": "14.3672", "Type": "" }, "geometry": { "type": "Point", "coordinates": [ 14.3672, 41.0969, 0.0 ] } },
{ "type": "Feature", "properties": { "Name": "Catania", "description": "LATITUDE: 37.49223<br>LONGITUDE: 15.07041<br>Type: ", "timestamp": null, "begin": null, "end": null, "altitudeMode": null, "tessellate": -1, "extrude": 0, "visibility": -1, "drawOrder": null, "icon": null, "LATITUDE": "37.49223", "LONGITUDE": "15.07041", "Type": "" }, "geometry": { "type": "Point", "coordinates": [ 15.07041, 37.49223, 0.0 ] } },
{ "type": "Feature", "properties": { "Name": "Catanzaro", "description": "LATITUDE: 38.88247<br>LONGITUDE: 16.60086<br>Type: ", "timestamp": null, "begin": null, "end": null, "altitudeMode": null, "tessellate": -1, "extrude": 0, "visibility": -1, "drawOrder": null, "icon": null, "LATITUDE": "38.88247", "LONGITUDE": "16.60086", "Type": "" }, "geometry": { "type": "Point", "coordinates": [ 16.60086, 38.88247, 0.0 ] } },
{ "type": "Feature", "properties": { "Name": "Cava dei Tirreni", "description": "LATITUDE: 40.69954<br>LONGITUDE: 14.70773<br>Type: ", "timestamp": null, "begin": null, "end": null, "altitudeMode": null, "tessellate": -1, "extrude": 0, "visibility": -1, "drawOrder": null, "icon": null, "LATITUDE": "40.69954", "LONGITUDE": "14.70773", "Type": "" }, "geometry": { "type": "Point", "coordinates": [ 14.70773, 40.69954, 0.0 ] } },
{ "type": "Feature", "properties": { "Name": "Cefalù", "description": "LATITUDE: 38.03856<br>LONGITUDE: 14.02285<br>Type: ", "timestamp": null, "begin": null, "end": null, "altitudeMode": null, "tessellate": -1, "extrude": 0, "visibility": -1, "drawOrder": null, "icon": null, "LATITUDE": "38.03856", "LONGITUDE": "14.02285", "Type": "" }, "geometry": { "type": "Point", "coordinates": [ 14.02285, 38.03856, 0.0 ] } },
{ "type": "Feature", "properties": { "Name": "Cosenza", "description": "LATITUDE: 39.2989<br>LONGITUDE: 16.25307<br>Type: ", "timestamp": null, "begin": null, "end": null, "altitudeMode": null, "tessellate": -1, "extrude": 0, "visibility": -1, "drawOrder": null, "icon": null, "LATITUDE": "39.2989", "LONGITUDE": "16.25307", "Type": "" }, "geometry": { "type": "Point", "coordinates": [ 16.25307, 39.2989, 0.0 ] } },
{ "type": "Feature", "properties": { "Name": "Eboli", "description": "LATITUDE: 40.61747<br>LONGITUDE: 15.05693<br>Type: ", "timestamp": null, "begin": null, "end": null, "altitudeMode": null, "tessellate": -1, "extrude": 0, "visibility": -1, "drawOrder": null, "icon": null, "LATITUDE": "40.61747", "LONGITUDE": "15.05693", "Type": "" }, "geometry": { "type": "Point", "coordinates": [ 15.05693, 40.61747, 0.0 ] } },
{ "type": "Feature", "properties": { "Name": "Enna (Castrogiovanni)", "description": "LATITUDE: 37.5655<br>LONGITUDE: 14.27433<br>Type: ", "timestamp": null, "begin": null, "end": null, "altitudeMode": null, "tessellate": -1, "extrude": 0, "visibility": -1, "drawOrder": null, "icon": null, "LATITUDE": "37.5655", "LONGITUDE": "14.27433", "Type": "" }, "geometry": { "type": "Point", "coordinates": [ 14.27433, 37.5655, 0.0 ] } },
{ "type": "Feature", "properties": { "Name": "Foggia", "description": "LATITUDE: 41.461761<br>LONGITUDE: 15.545021<br>Type: ", "timestamp": null, "begin": null, "end": null, "altitudeMode": null, "tessellate": -1, "extrude": 0, "visibility": -1, "drawOrder": null, "icon": null, "LATITUDE": "41.461761", "LONGITUDE": "15.545021", "Type": "" }, "geometry": { "type": "Point", "coordinates": [ 15.545021, 41.461761, 0.0 ] } },
{ "type": "Feature", "properties": { "Name": "Galatina", "description": "LATITUDE: 40.17416<br>LONGITUDE: 18.17032<br>Type: ", "timestamp": null, "begin": null, "end": null, "altitudeMode": null, "tessellate": -1, "extrude": 0, "visibility": -1, "drawOrder": null, "icon": null, "LATITUDE": "40.17416", "LONGITUDE": "18.17032", "Type": "" }, "geometry": { "type": "Point", "coordinates": [ 18.17032, 40.17416, 0.0 ] } },
{ "type": "Feature", "properties": { "Name": "Gallipoli", "description": "LATITUDE: 40.05594<br>LONGITUDE: 17.99088<br>Type: ", "timestamp": null, "begin": null, "end": null, "altitudeMode": null, "tessellate": -1, "extrude": 0, "visibility": -1, "drawOrder": null, "icon": null, "LATITUDE": "40.05594", "LONGITUDE": "17.99088", "Type": "" }, "geometry": { "type": "Point", "coordinates": [ 17.99088, 40.05594, 0.0 ] } },
{ "type": "Feature", "properties": { "Name": "Gerace", "description": "LATITUDE: 38.272<br>LONGITUDE: 16.2218<br>Type: ", "timestamp": null, "begin": null, "end": null, "altitudeMode": null, "tessellate": -1, "extrude": 0, "visibility": -1, "drawOrder": null, "icon": null, "LATITUDE": "38.272", "LONGITUDE": "16.2218", "Type": "" }, "geometry": { "type": "Point", "coordinates": [ 16.2218, 38.272, 0.0 ] } },
{ "type": "Feature", "properties": { "Name": "Isernia", "description": "LATITUDE: 41.59603<br>LONGITUDE: 14.23399<br>Type: ", "timestamp": null, "begin": null, "end": null, "altitudeMode": null, "tessellate": -1, "extrude": 0, "visibility": -1, "drawOrder": null, "icon": null, "LATITUDE": "41.59603", "LONGITUDE": "14.23399", "Type": "" }, "geometry": { "type": "Point", "coordinates": [ 14.23399, 41.59603, 0.0 ] } },
{ "type": "Feature", "properties": { "Name": "L'Aquila", "description": "LATITUDE: 42.34985<br>LONGITUDE: 13.399509<br>Type: ", "timestamp": null, "begin": null, "end": null, "altitudeMode": null, "tessellate": -1, "extrude": 0, "visibility": -1, "drawOrder": null, "icon": null, "LATITUDE": "42.34985", "LONGITUDE": "13.399509", "Type": "" }, "geometry": { "type": "Point", "coordinates": [ 13.399509, 42.34985, 0.0 ] } },
{ "type": "Feature", "properties": { "Name": "Lecce", "description": "LATITUDE: 40.35481<br>LONGITUDE: 18.17244<br>Type: ", "timestamp": null, "begin": null, "end": null, "altitudeMode": null, "tessellate": -1, "extrude": 0, "visibility": -1, "drawOrder": null, "icon": null, "LATITUDE": "40.35481", "LONGITUDE": "18.17244", "Type": "" }, "geometry": { "type": "Point", "coordinates": [ 18.17244, 40.35481, 0.0 ] } },
{ "type": "Feature", "properties": { "Name": "Lucera", "description": "LATITUDE: 41.5055<br>LONGITUDE: 15.3391<br>Type: ", "timestamp": null, "begin": null, "end": null, "altitudeMode": null, "tessellate": -1, "extrude": 0, "visibility": -1, "drawOrder": null, "icon": null, "LATITUDE": "41.5055", "LONGITUDE": "15.3391", "Type": "" }, "geometry": { "type": "Point", "coordinates": [ 15.3391, 41.5055, 0.0 ] } },
{ "type": "Feature", "properties": { "Name": "Manfredonia", "description": "LATITUDE: 41.63065<br>LONGITUDE: 15.91876<br>Type: ", "timestamp": null, "begin": null, "end": null, "altitudeMode": null, "tessellate": -1, "extrude": 0, "visibility": -1, "drawOrder": null, "icon": null, "LATITUDE": "41.63065", "LONGITUDE": "15.91876", "Type": "" }, "geometry": { "type": "Point", "coordinates": [ 15.91876, 41.63065, 0.0 ] } },
{ "type": "Feature", "properties": { "Name": "Marsala", "description": "LATITUDE: 37.7992<br>LONGITUDE: 12.4367<br>Type: ", "timestamp": null, "begin": null, "end": null, "altitudeMode": null, "tessellate": -1, "extrude": 0, "visibility": -1, "drawOrder": null, "icon": null, "LATITUDE": "37.7992", "LONGITUDE": "12.4367", "Type": "" }, "geometry": { "type": "Point", "coordinates": [ 12.4367, 37.7992, 0.0 ] } },
{ "type": "Feature", "properties": { "Name": "Matera", "description": "LATITUDE: 40.66599<br>LONGITUDE: 16.69086<br>Type: ", "timestamp": null, "begin": null, "end": null, "altitudeMode": null, "tessellate": -1, "extrude": 0, "visibility": -1, "drawOrder": null, "icon": null, "LATITUDE": "40.66599", "LONGITUDE": "16.69086", "Type": "" }, "geometry": { "type": "Point", "coordinates": [ 16.69086, 40.66599, 0.0 ] } },
{ "type": "Feature", "properties": { "Name": "Mazara", "description": "LATITUDE: 37.65418<br>LONGITUDE: 12.59304<br>Type: ", "timestamp": null, "begin": null, "end": null, "altitudeMode": null, "tessellate": -1, "extrude": 0, "visibility": -1, "drawOrder": null, "icon": null, "LATITUDE": "37.65418", "LONGITUDE": "12.59304", "Type": "" }, "geometry": { "type": "Point", "coordinates": [ 12.59304, 37.65418, 0.0 ] } },
{ "type": "Feature", "properties": { "Name": "Melfi", "description": "LATITUDE: 40.99571<br>LONGITUDE: 15.65578<br>Type: ", "timestamp": null, "begin": null, "end": null, "altitudeMode": null, "tessellate": -1, "extrude": 0, "visibility": -1, "drawOrder": null, "icon": null, "LATITUDE": "40.99571", "LONGITUDE": "15.65578", "Type": "" }, "geometry": { "type": "Point", "coordinates": [ 15.65578, 40.99571, 0.0 ] } },
{ "type": "Feature", "properties": { "Name": "Messina", "description": "LATITUDE: 38.19394<br>LONGITUDE: 15.55256<br>Type: ", "timestamp": null, "begin": null, "end": null, "altitudeMode": null, "tessellate": -1, "extrude": 0, "visibility": -1, "drawOrder": null, "icon": null, "LATITUDE": "38.19394", "LONGITUDE": "15.55256", "Type": "" }, "geometry": { "type": "Point", "coordinates": [ 15.55256, 38.19394, 0.0 ] } },
{ "type": "Feature", "properties": { "Name": "Mileto", "description": "LATITUDE: 38.6078<br>LONGITUDE: 16.06751<br>Type: ", "timestamp": null, "begin": null, "end": null, "altitudeMode": null, "tessellate": -1, "extrude": 0, "visibility": -1, "drawOrder": null, "icon": null, "LATITUDE": "38.6078", "LONGITUDE": "16.06751", "Type": "" }, "geometry": { "type": "Point", "coordinates": [ 16.06751, 38.6078, 0.0 ] } },
{ "type": "Feature", "properties": { "Name": "Molfetta", "description": "LATITUDE: 41.2028<br>LONGITUDE: 16.5987<br>Type: ", "timestamp": null, "begin": null, "end": null, "altitudeMode": null, "tessellate": -1, "extrude": 0, "visibility": -1, "drawOrder": null, "icon": null, "LATITUDE": "41.2028", "LONGITUDE": "16.5987", "Type": "" }, "geometry": { "type": "Point", "coordinates": [ 16.5987, 41.2028, 0.0 ] } },
{ "type": "Feature", "properties": { "Name": "Montecassino", "description": "LATITUDE: 41.48333<br>LONGITUDE: 13.8<br>Type: ", "timestamp": null, "begin": null, "end": null, "altitudeMode": null, "tessellate": -1, "extrude": 0, "visibility": -1, "drawOrder": null, "icon": null, "LATITUDE": "41.48333", "LONGITUDE": "13.8", "Type": "" }, "geometry": { "type": "Point", "coordinates": [ 13.8, 41.48333, 0.0 ] } },
{ "type": "Feature", "properties": { "Name": "Monreale", "description": "LATITUDE: 38.08125<br>LONGITUDE: 13.28947<br>Type: ", "timestamp": null, "begin": null, "end": null, "altitudeMode": null, "tessellate": -1, "extrude": 0, "visibility": -1, "drawOrder": null, "icon": null, "LATITUDE": "38.08125", "LONGITUDE": "13.28947", "Type": "" }, "geometry": { "type": "Point", "coordinates": [ 13.28947, 38.08125, 0.0 ] } },
{ "type": "Feature", "properties": { "Name": "Monte Sant'Angelo", "description": "LATITUDE: 41.7046<br>LONGITUDE: 15.9677<br>Type: ", "timestamp": null, "begin": null, "end": null, "altitudeMode": null, "tessellate": -1, "extrude": 0, "visibility": -1, "drawOrder": null, "icon": null, "LATITUDE": "41.7046", "LONGITUDE": "15.9677", "Type": "" }, "geometry": { "type": "Point", "coordinates": [ 15.9677, 41.7046, 0.0 ] } },
{ "type": "Feature", "properties": { "Name": "Naples", "description": "LATITUDE: 40.85631<br>LONGITUDE: 14.24641<br>Type: ", "timestamp": null, "begin": null, "end": null, "altitudeMode": null, "tessellate": -1, "extrude": 0, "visibility": -1, "drawOrder": null, "icon": null, "LATITUDE": "40.85631", "LONGITUDE": "14.24641", "Type": "" }, "geometry": { "type": "Point", "coordinates": [ 14.24641, 40.85631, 0.0 ] } },
{ "type": "Feature", "properties": { "Name": "Nola", "description": "LATITUDE: 40.92606<br>LONGITUDE: 14.52816<br>Type: ", "timestamp": null, "begin": null, "end": null, "altitudeMode": null, "tessellate": -1, "extrude": 0, "visibility": -1, "drawOrder": null, "icon": null, "LATITUDE": "40.92606", "LONGITUDE": "14.52816", "Type": "" }, "geometry": { "type": "Point", "coordinates": [ 14.52816, 40.92606, 0.0 ] } },
{ "type": "Feature", "properties": { "Name": "Nardò", "description": "LATITUDE: 40.1798<br>LONGITUDE: 18.0332<br>Type: ", "timestamp": null, "begin": null, "end": null, "altitudeMode": null, "tessellate": -1, "extrude": 0, "visibility": -1, "drawOrder": null, "icon": null, "LATITUDE": "40.1798", "LONGITUDE": "18.0332", "Type": "" }, "geometry": { "type": "Point", "coordinates": [ 18.0332, 40.1798, 0.0 ] } },
{ "type": "Feature", "properties": { "Name": "Otranto", "description": "LATITUDE: 40.1439<br>LONGITUDE: 18.4912<br>Type: ", "timestamp": null, "begin": null, "end": null, "altitudeMode": null, "tessellate": -1, "extrude": 0, "visibility": -1, "drawOrder": null, "icon": null, "LATITUDE": "40.1439", "LONGITUDE": "18.4912", "Type": "" }, "geometry": { "type": "Point", "coordinates": [ 18.4912, 40.1439, 0.0 ] } },
{ "type": "Feature", "properties": { "Name": "Palermo", "description": "LATITUDE: 38.1157<br>LONGITUDE: 13.3613<br>Type: ", "timestamp": null, "begin": null, "end": null, "altitudeMode": null, "tessellate": -1, "extrude": 0, "visibility": -1, "drawOrder": null, "icon": null, "LATITUDE": "38.1157", "LONGITUDE": "13.3613", "Type": "" }, "geometry": { "type": "Point", "coordinates": [ 13.3613, 38.1157, 0.0 ] } },
{ "type": "Feature", "properties": { "Name": "Potenza", "description": "LATITUDE: 40.6404<br>LONGITUDE: 15.8056<br>Type: ", "timestamp": null, "begin": null, "end": null, "altitudeMode": null, "tessellate": -1, "extrude": 0, "visibility": -1, "drawOrder": null, "icon": null, "LATITUDE": "40.6404", "LONGITUDE": "15.8056", "Type": "" }, "geometry": { "type": "Point", "coordinates": [ 15.8056, 40.6404, 0.0 ] } },
{ "type": "Feature", "properties": { "Name": "Ravello", "description": "LATITUDE: 40.6492<br>LONGITUDE: 14.6117<br>Type: ", "timestamp": null, "begin": null, "end": null, "altitudeMode": null, "tessellate": -1, "extrude": 0, "visibility": -1, "drawOrder": null, "icon": null, "LATITUDE": "40.6492", "LONGITUDE": "14.6117", "Type": "" }, "geometry": { "type": "Point", "coordinates": [ 14.6117, 40.6492, 0.0 ] } },
{ "type": "Feature", "properties": { "Name": "Reggio", "description": "LATITUDE: 38.1113<br>LONGITUDE: 15.6473<br>Type: ", "timestamp": null, "begin": null, "end": null, "altitudeMode": null, "tessellate": -1, "extrude": 0, "visibility": -1, "drawOrder": null, "icon": null, "LATITUDE": "38.1113", "LONGITUDE": "15.6473", "Type": "" }, "geometry": { "type": "Point", "coordinates": [ 15.6473, 38.1113, 0.0 ] } },
{ "type": "Feature", "properties": { "Name": "Rossano", "description": "LATITUDE: 39.5763<br>LONGITUDE: 16.6343<br>Type: ", "timestamp": null, "begin": null, "end": null, "altitudeMode": null, "tessellate": -1, "extrude": 0, "visibility": -1, "drawOrder": null, "icon": null, "LATITUDE": "39.5763", "LONGITUDE": "16.6343", "Type": "" }, "geometry": { "type": "Point", "coordinates": [ 16.6343, 39.5763, 0.0 ] } },
{ "type": "Feature", "properties": { "Name": "Ruvo di Puglia", "description": "LATITUDE: 41.1173<br>LONGITUDE: 16.4837<br>Type: ", "timestamp": null, "begin": null, "end": null, "altitudeMode": null, "tessellate": -1, "extrude": 0, "visibility": -1, "drawOrder": null, "icon": null, "LATITUDE": "41.1173", "LONGITUDE": "16.4837", "Type": "" }, "geometry": { "type": "Point", "coordinates": [ 16.4837, 41.1173, 0.0 ] } },
{ "type": "Feature", "properties": { "Name": "Salerno", "description": "LATITUDE: 40.6824<br>LONGITUDE: 14.7681<br>Type: ", "timestamp": null, "begin": null, "end": null, "altitudeMode": null, "tessellate": -1, "extrude": 0, "visibility": -1, "drawOrder": null, "icon": null, "LATITUDE": "40.6824", "LONGITUDE": "14.7681", "Type": "" }, "geometry": { "type": "Point", "coordinates": [ 14.7681, 40.6824, 0.0 ] } },
{ "type": "Feature", "properties": { "Name": "Sessa Aurunca", "description": "LATITUDE: 41.2383<br>LONGITUDE: 13.9326<br>Type: ", "timestamp": null, "begin": null, "end": null, "altitudeMode": null, "tessellate": -1, "extrude": 0, "visibility": -1, "drawOrder": null, "icon": null, "LATITUDE": "41.2383", "LONGITUDE": "13.9326", "Type": "" }, "geometry": { "type": "Point", "coordinates": [ 13.9326, 41.2383, 0.0 ] } },
{ "type": "Feature", "properties": { "Name": "Siponto", "description": "LATITUDE: 41.6043<br>LONGITUDE: 15.8907<br>Type: ", "timestamp": null, "begin": null, "end": null, "altitudeMode": null, "tessellate": -1, "extrude": 0, "visibility": -1, "drawOrder": null, "icon": null, "LATITUDE": "41.6043", "LONGITUDE": "15.8907", "Type": "" }, "geometry": { "type": "Point", "coordinates": [ 15.8907, 41.6043, 0.0 ] } },
{ "type": "Feature", "properties": { "Name": "Sorrento", "description": "LATITUDE: 40.6263<br>LONGITUDE: 14.3758<br>Type: ", "timestamp": null, "begin": null, "end": null, "altitudeMode": null, "tessellate": -1, "extrude": 0, "visibility": -1, "drawOrder": null, "icon": null, "LATITUDE": "40.6263", "LONGITUDE": "14.3758", "Type": "" }, "geometry": { "type": "Point", "coordinates": [ 14.3758, 40.6263, 0.0 ] } },
{ "type": "Feature", "properties": { "Name": "Squillace", "description": "LATITUDE: 38.7895<br>LONGITUDE: 16.4995<br>Type: ", "timestamp": null, "begin": null, "end": null, "altitudeMode": null, "tessellate": -1, "extrude": 0, "visibility": -1, "drawOrder": null, "icon": null, "LATITUDE": "38.7895", "LONGITUDE": "16.4995", "Type": "" }, "geometry": { "type": "Point", "coordinates": [ 16.4995, 38.7895, 0.0 ] } },
{ "type": "Feature", "properties": { "Name": "Sulmona", "description": "LATITUDE: 42.0482<br>LONGITUDE: 13.9289<br>Type: ", "timestamp": null, "begin": null, "end": null, "altitudeMode": null, "tessellate": -1, "extrude": 0, "visibility": -1, "drawOrder": null, "icon": null, "LATITUDE": "42.0482", "LONGITUDE": "13.9289", "Type": "" }, "geometry": { "type": "Point", "coordinates": [ 13.9289, 42.0482, 0.0 ] } },
{ "type": "Feature", "properties": { "Name": "Syracuse", "description": "LATITUDE: 37.0755<br>LONGITUDE: 15.2866<br>Type: ", "timestamp": null, "begin": null, "end": null, "altitudeMode": null, "tessellate": -1, "extrude": 0, "visibility": -1, "drawOrder": null, "icon": null, "LATITUDE": "37.0755", "LONGITUDE": "15.2866", "Type": "" }, "geometry": { "type": "Point", "coordinates": [ 15.2866, 37.0755, 0.0 ] } },
{ "type": "Feature", "properties": { "Name": "Taormina", "description": "LATITUDE: 37.8516<br>LONGITUDE: 15.2853<br>Type: ", "timestamp": null, "begin": null, "end": null, "altitudeMode": null, "tessellate": -1, "extrude": 0, "visibility": -1, "drawOrder": null, "icon": null, "LATITUDE": "37.8516", "LONGITUDE": "15.2853", "Type": "" }, "geometry": { "type": "Point", "coordinates": [ 15.2853, 37.8516, 0.0 ] } },
{ "type": "Feature", "properties": { "Name": "Taranto", "description": "LATITUDE: 40.4644<br>LONGITUDE: 17.247<br>Type: ", "timestamp": null, "begin": null, "end": null, "altitudeMode": null, "tessellate": -1, "extrude": 0, "visibility": -1, "drawOrder": null, "icon": null, "LATITUDE": "40.4644", "LONGITUDE": "17.247", "Type": "" }, "geometry": { "type": "Point", "coordinates": [ 17.247, 40.4644, 0.0 ] } },
{ "type": "Feature", "properties": { "Name": "Trani", "description": "LATITUDE: 41.2775<br>LONGITUDE: 16.4178<br>Type: ", "timestamp": null, "begin": null, "end": null, "altitudeMode": null, "tessellate": -1, "extrude": 0, "visibility": -1, "drawOrder": null, "icon": null, "LATITUDE": "41.2775", "LONGITUDE": "16.4178", "Type": "" }, "geometry": { "type": "Point", "coordinates": [ 16.4178, 41.2775, 0.0 ] } },
{ "type": "Feature", "properties": { "Name": "Trapani", "description": "LATITUDE: 38.0176<br>LONGITUDE: 12.5372<br>Type: ", "timestamp": null, "begin": null, "end": null, "altitudeMode": null, "tessellate": -1, "extrude": 0, "visibility": -1, "drawOrder": null, "icon": null, "LATITUDE": "38.0176", "LONGITUDE": "12.5372", "Type": "" }, "geometry": { "type": "Point", "coordinates": [ 12.5372, 38.0176, 0.0 ] } },
{ "type": "Feature", "properties": { "Name": "Troia", "description": "LATITUDE: 41.3598<br>LONGITUDE: 15.3081<br>Type: ", "timestamp": null, "begin": null, "end": null, "altitudeMode": null, "tessellate": -1, "extrude": 0, "visibility": -1, "drawOrder": null, "icon": null, "LATITUDE": "41.3598", "LONGITUDE": "15.3081", "Type": "" }, "geometry": { "type": "Point", "coordinates": [ 15.3081, 41.3598, 0.0 ] } },
{ "type": "Feature", "properties": { "Name": "Troina", "description": "LATITUDE: 37.7848<br>LONGITUDE: 14.6001<br>Type: ", "timestamp": null, "begin": null, "end": null, "altitudeMode": null, "tessellate": -1, "extrude": 0, "visibility": -1, "drawOrder": null, "icon": null, "LATITUDE": "37.7848", "LONGITUDE": "14.6001", "Type": "" }, "geometry": { "type": "Point", "coordinates": [ 14.6001, 37.7848, 0.0 ] } },
{ "type": "Feature", "properties": { "Name": "Venosa", "description": "LATITUDE: 40.9608<br>LONGITUDE: 15.8154<br>Type: ", "timestamp": null, "begin": null, "end": null, "altitudeMode": null, "tessellate": -1, "extrude": 0, "visibility": -1, "drawOrder": null, "icon": null, "LATITUDE": "40.9608", "LONGITUDE": "15.8154", "Type": "" }, "geometry": { "type": "Point", "coordinates": [ 15.8154, 40.9608, 0.0 ] } }
]
}
